[
    {
        "source_code": "ballarat",
        "name": "Ballarat",
        "enabled": 1,
        "description": null,
        "latitude": -37.572325,
        "longitude": 143.828129,
        "country_id": "AU",
        "region_id": 491,
        "region": "Victoria",
        "city": "Delacombe",
        "street": "102-104 Sutton Street",
        "postcode": "3356",
        "contact_name": "Ballarat Store",
        "email": null,
        "phone": "0353358495",
        "fax": null,
        "use_default_carrier_config": 1,
        "is_pickup_location_active": 0,
        "frontend_name": "Ballarat",
        "frontend_description": null
    },
    {
        "source_code": "bendigo",
        "name": "Bendigo",
        "enabled": 1,
        "description": null,
        "latitude": -36.731249,
        "longitude": 144.258345,
        "country_id": "AU",
        "region_id": 491,
        "region": "Victoria",
        "city": "California Gully",
        "street": "320a Eaglehawk Road",
        "postcode": "3356",
        "contact_name": "Bendigo Store",
        "email": null,
        "phone": "0354468609",
        "fax": null,
        "use_default_carrier_config": 1,
        "is_pickup_location_active": 0,
        "frontend_name": "Bendigo",
        "frontend_description": null
    },
    {
        "source_code": "bentleigh",
        "name": "Bentleigh",
        "enabled": 1,
        "description": null,
        "latitude": -37.929138,
        "longitude": 145.031173,
        "country_id": "AU",
        "region_id": 491,
        "region": "Victoria",
        "city": "Bentleigh",
        "street": "887-889 Nepean Highway",
        "postcode": "3204",
        "contact_name": "Bentleigh Store",
        "email": null,
        "phone": "0394279916",
        "fax": null,
        "use_default_carrier_config": 1,
        "is_pickup_location_active": 0,
        "frontend_name": "Bentleigh",
        "frontend_description": null
    },
    {
        "source_code": "braybrook",
        "name": "Braybrook",
        "enabled": 1,
        "description": null,
        "latitude": -37.779392,
        "longitude": 144.847571,
        "country_id": "AU",
        "region_id": 491,
        "region": "Victoria",
        "city": "Braybrook",
        "street": "359 Ballarat Road",
        "postcode": "3019",
        "contact_name": "Braybrook Store",
        "email": null,
        "phone": "0390261969",
        "fax": null,
        "use_default_carrier_config": 1,
        "is_pickup_location_active": 0,
        "frontend_name": "Braybrook",
        "frontend_description": null
    },
    {
        "source_code": "brookvale",
        "name": "Brookvale",
        "enabled": 1,
        "description": null,
        "latitude": -33.760925,
        "longitude": 151.274827,
        "country_id": "AU",
        "region_id": 486,
        "region": "New South Wales",
        "city": "Brookvale",
        "street": "531 Pittwater Road",
        "postcode": "2100",
        "contact_name": "Brookvale Store",
        "email": null,
        "phone": "0299398726",
        "fax": null,
        "use_default_carrier_config": 1,
        "is_pickup_location_active": 0,
        "frontend_name": "Brookvale",
        "frontend_description": null
    },
    {
        "source_code": "bundall",
        "name": "Bundall",
        "enabled": 1,
        "description": null,
        "latitude": -28.007475,
        "longitude": 153.412243,
        "country_id": "AU",
        "region_id": 488,
        "region": "Queensland",
        "city": "Bundall",
        "street": "76 Bundall Road",
        "postcode": "4217",
        "contact_name": "Bundall Store",
        "email": null,
        "phone": "0755317511",
        "fax": null,
        "use_default_carrier_config": 1,
        "is_pickup_location_active": 0,
        "frontend_name": "Bundall",
        "frontend_description": null
    },
    {
        "source_code": "cabramatta",
        "name": "Cabramatta",
        "enabled": 1,
        "description": null,
        "latitude": -33.899129,
        "longitude": 150.949163,
        "country_id": "AU",
        "region_id": 486,
        "region": "New South Wales",
        "city": "Cabramatta",
        "street": "1/286 Hume Highway",
        "postcode": "2166",
        "contact_name": "Cabramatta Store",
        "email": null,
        "phone": "0287683979",
        "fax": null,
        "use_default_carrier_config": 1,
        "is_pickup_location_active": 0,
        "frontend_name": "Cabramatta",
        "frontend_description": null
    },
    {
        "source_code": "cairns",
        "name": "Cairns",
        "enabled": 1,
        "description": null,
        "latitude": -16.930727,
        "longitude": 145.768899,
        "country_id": "AU",
        "region_id": 488,
        "region": "Queensland",
        "city": "Portsmith",
        "street": "147 Spence Street",
        "postcode": "4870",
        "contact_name": "Cairns Store",
        "email": null,
        "phone": "0740413880",
        "fax": null,
        "use_default_carrier_config": 1,
        "is_pickup_location_active": 0,
        "frontend_name": "Cairns",
        "frontend_description": null
    },
    {
        "source_code": "campbelltown",
        "name": "Campbelltown",
        "enabled": 1,
        "description": null,
        "latitude": -34.049687,
        "longitude": 150.824912,
        "country_id": "AU",
        "region_id": 486,
        "region": "New South Wales",
        "city": "Campbelltown",
        "street": "Unit 8-9, 5 Harbord Road",
        "postcode": "2560",
        "contact_name": "Campbelltown Store",
        "email": null,
        "phone": "0246411313",
        "fax": null,
        "use_default_carrier_config": 1,
        "is_pickup_location_active": 0,
        "frontend_name": "Campbelltown",
        "frontend_description": null
    },
    {
        "source_code": "canberra",
        "name": "Canberra",
        "enabled": 1,
        "description": null,
        "latitude": -34.490215,
        "longitude": 150.888423,
        "country_id": "AU",
        "region_id": 486,
        "region": "New South Wales",
        "city": "Fyshwick",
        "street": "Unit 1, 161 Newcastle Street",
        "postcode": "2609",
        "contact_name": "Canberra Store",
        "email": null,
        "phone": "0262809551",
        "fax": null,
        "use_default_carrier_config": 1,
        "is_pickup_location_active": 0,
        "frontend_name": "Canberra",
        "frontend_description": null
    },
    {
        "source_code": "capalaba",
        "name": "Capalaba",
        "enabled": 1,
        "description": null,
        "latitude": -27.530953,
        "longitude": 153.197997,
        "country_id": "AU",
        "region_id": 488,
        "region": "Queensland",
        "city": "Capalaba",
        "street": "128 Redland Bay Road",
        "postcode": "4157",
        "contact_name": "Capalaba Store",
        "email": null,
        "phone": "0738256677",
        "fax": null,
        "use_default_carrier_config": 1,
        "is_pickup_location_active": 0,
        "frontend_name": "Capalaba",
        "frontend_description": null
    },
    {
        "source_code": "coffs-harbour",
        "name": "Coffs Harbour",
        "enabled": 1,
        "description": null,
        "latitude": -30.316198,
        "longitude": 153.087059,
        "country_id": "AU",
        "region_id": 486,
        "region": "New South Wales",
        "city": "North Boambee",
        "street": "3/17 Isles Drive",
        "postcode": "2450",
        "contact_name": "Coffs Harbour Store",
        "email": null,
        "phone": "0272260990",
        "fax": null,
        "use_default_carrier_config": 1,
        "is_pickup_location_active": 0,
        "frontend_name": "Coffs Harbour",
        "frontend_description": null
    },
    {
        "source_code": "dandenong",
        "name": "Dandenong",
        "enabled": 1,
        "description": null,
        "latitude": -37.972006,
        "longitude": 145.200523,
        "country_id": "AU",
        "region_id": 491,
        "region": "Victoria",
        "city": "Dandenong West",
        "street": "7/200-206 Princes Highway/Dandenong Road",
        "postcode": "3175",
        "contact_name": "Dandenong Store",
        "email": null,
        "phone": "0392123800",
        "fax": null,
        "use_default_carrier_config": 1,
        "is_pickup_location_active": 0,
        "frontend_name": "Dandenong",
        "frontend_description": null
    },
    {
        "source_code": "east-brisbane",
        "name": "East Brisbane",
        "enabled": 1,
        "description": null,
        "latitude": -27.487649,
        "longitude": 153.041170,
        "country_id": "AU",
        "region_id": 488,
        "region": "Queensland",
        "city": "East Brisbane",
        "street": "899 Stanley Street East",
        "postcode": "4169",
        "contact_name": "East Brisbane Store",
        "email": null,
        "phone": "0733924229",
        "fax": null,
        "use_default_carrier_config": 1,
        "is_pickup_location_active": 0,
        "frontend_name": "East Brisbane",
        "frontend_description": null
    },
    {
        "source_code": "fawkner",
        "name": "Fawkner",
        "enabled": 1,
        "description": null,
        "latitude": -37.698312,
        "longitude": 144.958956,
        "country_id": "AU",
        "region_id": 491,
        "region": "Victoria",
        "city": "Fawkner",
        "street": "1331 Sydney Road",
        "postcode": "3060",
        "contact_name": "Fawkner Store",
        "email": null,
        "phone": "0370258989",
        "fax": null,
        "use_default_carrier_config": 1,
        "is_pickup_location_active": 0,
        "frontend_name": "Fawkner",
        "frontend_description": null
    },
    {
        "source_code": "fortitude-valley",
        "name": "Fortitude Valley",
        "enabled": 1,
        "description": null,
        "latitude": -27.449340,
        "longitude": 153.041307,
        "country_id": "AU",
        "region_id": 488,
        "region": "Queensland",
        "city": "Bowen Hills",
        "street": "3 Montpelier Road",
        "postcode": "4006",
        "contact_name": "Fortitude Valley Store",
        "email": null,
        "phone": "0738524101",
        "fax": null,
        "use_default_carrier_config": 1,
        "is_pickup_location_active": 0,
        "frontend_name": "Fortitude Valley",
        "frontend_description": null
    },
    {
        "source_code": "geelong",
        "name": "Geelong",
        "enabled": 1,
        "description": null,
        "latitude": -38.142011,
        "longitude": 144.353061,
        "country_id": "AU",
        "region_id": 491,
        "region": "Victoria",
        "city": "Geelong West",
        "street": "166-170 Latrobe Terrace",
        "postcode": "3218",
        "contact_name": "Geelong Store",
        "email": null,
        "phone": "0352217481",
        "fax": null,
        "use_default_carrier_config": 1,
        "is_pickup_location_active": 0,
        "frontend_name": "Geelong",
        "frontend_description": null
    },
    {
        "source_code": "heatherbrae",
        "name": "Heatherbrae",
        "enabled": 1,
        "description": null,
        "latitude": -32.793188,
        "longitude": 151.724859,
        "country_id": "AU",
        "region_id": 486,
        "region": "New South Wales",
        "city": "Heatherbrae",
        "street": "Unit 1, 8 Griffin Street",
        "postcode": "2324",
        "contact_name": "Heatherbrae Store",
        "email": null,
        "phone": "0240085060",
        "fax": null,
        "use_default_carrier_config": 1,
        "is_pickup_location_active": 0,
        "frontend_name": "Heatherbrae",
        "frontend_description": null
    },
    {
        "source_code": "hervey-bay",
        "name": "Hervey Bay",
        "enabled": 1,
        "description": null,
        "latitude": -25.285951,
        "longitude": 152.825598,
        "country_id": "AU",
        "region_id": 488,
        "region": "Queensland",
        "city": "Pialba",
        "street": "Unit 1, 64 Boat Harbour Drive",
        "postcode": "4655",
        "contact_name": "Hervey Bay Store",
        "email": null,
        "phone": "0741914900",
        "fax": null,
        "use_default_carrier_config": 1,
        "is_pickup_location_active": 0,
        "frontend_name": "Hervey Bay",
        "frontend_description": null
    },
    {
        "source_code": "hobart",
        "name": "Hobart",
        "enabled": 1,
        "description": null,
        "latitude": -42.833286,
        "longitude": 147.278596,
        "country_id": "AU",
        "region_id": 490,
        "region": "Tasmania",
        "city": "Glenorchy",
        "street": "347-349 Main Road",
        "postcode": "7010",
        "contact_name": "Hobart Store",
        "email": null,
        "phone": "0361221818",
        "fax": null,
        "use_default_carrier_config": 1,
        "is_pickup_location_active": 0,
        "frontend_name": "Hobart",
        "frontend_description": null
    },
    {
        "source_code": "hoppers-crossing",
        "name": "Hoppers Crossing",
        "enabled": 1,
        "description": null,
        "latitude": -37.873755,
        "longitude": 144.719059,
        "country_id": "AU",
        "region_id": 491,
        "region": "Victoria",
        "city": "Hoppers Crossing",
        "street": "307a Old Geelong Road",
        "postcode": "3029",
        "contact_name": "Hoppers Crossing Store",
        "email": null,
        "phone": "0397485117",
        "fax": null,
        "use_default_carrier_config": 1,
        "is_pickup_location_active": 0,
        "frontend_name": "Hoppers Crossing",
        "frontend_description": null
    },
    {
        "source_code": "ipswich",
        "name": "Ipswich",
        "enabled": 1,
        "description": null,
        "latitude": -27.607951,
        "longitude": 152.761693,
        "country_id": "AU",
        "region_id": 488,
        "region": "Queensland",
        "city": "North Ipswich",
        "street": "2/2 Pine Street",
        "postcode": "4305",
        "contact_name": "Ipswich Store",
        "email": null,
        "phone": "0732827097",
        "fax": null,
        "use_default_carrier_config": 1,
        "is_pickup_location_active": 0,
        "frontend_name": "Ipswich",
        "frontend_description": null
    },
    {
        "source_code": "kawana-waters",
        "name": "Kawana Waters",
        "enabled": 1,
        "description": null,
        "latitude": -26.699588,
        "longitude": 153.119539,
        "country_id": "AU",
        "region_id": 488,
        "region": "Queensland",
        "city": "Kawana Waters",
        "street": "Corner Nicklin Way & Eden Street (2 Eden Street)",
        "postcode": "4575",
        "contact_name": "Kawana Waters Store",
        "email": null,
        "phone": "0754443215",
        "fax": null,
        "use_default_carrier_config": 1,
        "is_pickup_location_active": 0,
        "frontend_name": "Kawana Waters",
        "frontend_description": null
    },
    {
        "source_code": "labrador",
        "name": "Labrador",
        "enabled": 1,
        "description": null,
        "latitude": -27.929417,
        "longitude": 153.376255,
        "country_id": "AU",
        "region_id": 488,
        "region": "Queensland",
        "city": "Labrador",
        "street": "239 Brisbane Road",
        "postcode": "4216",
        "contact_name": "Labrador Store",
        "email": null,
        "phone": "0755006625",
        "fax": null,
        "use_default_carrier_config": 1,
        "is_pickup_location_active": 0,
        "frontend_name": "Labrador",
        "frontend_description": null
    },
    {
        "source_code": "lawnton",
        "name": "Lawnton",
        "enabled": 1,
        "description": null,
        "latitude": -27.292276,
        "longitude": 152.984732,
        "country_id": "AU",
        "region_id": 488,
        "region": "Queensland",
        "city": "Lawnton",
        "street": "666 Gympie Road",
        "postcode": "4501",
        "contact_name": "Lawnton Store",
        "email": null,
        "phone": "0730497525",
        "fax": null,
        "use_default_carrier_config": 1,
        "is_pickup_location_active": 0,
        "frontend_name": "Lawnton",
        "frontend_description": null
    },
    {
        "source_code": "mandurah",
        "name": "Mandurah",
        "enabled": 1,
        "description": null,
        "latitude": -32.515303,
        "longitude": 115.747401,
        "country_id": "AU",
        "region_id": 492,
        "region": "Western Australia",
        "city": "Greenfields",
        "street": "26 Rouse Road",
        "postcode": "6210",
        "contact_name": "Mandurah Store",
        "email": null,
        "phone": "0895870515",
        "fax": null,
        "use_default_carrier_config": 1,
        "is_pickup_location_active": 0,
        "frontend_name": "Mandurah",
        "frontend_description": null
    },
    {
        "source_code": "mile-end",
        "name": "Mile End",
        "enabled": 1,
        "description": null,
        "latitude": -34.932172,
        "longitude": 138.572829,
        "country_id": "AU",
        "region_id": 489,
        "region": "South Australia",
        "city": "Mile End",
        "street": "23-29 Sir Donald Bradman Drive",
        "postcode": "5031",
        "contact_name": "Mile End Store",
        "email": null,
        "phone": "0884437046",
        "fax": null,
        "use_default_carrier_config": 1,
        "is_pickup_location_active": 0,
        "frontend_name": "Mile End",
        "frontend_description": null
    },
    {
        "source_code": "newcastle",
        "name": "Newcastle",
        "enabled": 1,
        "description": null,
        "latitude": -32.988301,
        "longitude": 151.691287,
        "country_id": "AU",
        "region_id": 486,
        "region": "New South Wales",
        "city": "Gateshead",
        "street": "Unit 1, 5 - 7 Pacific Highway",
        "postcode": "2290",
        "contact_name": "Newcastle Store",
        "email": null,
        "phone": "0249432003",
        "fax": null,
        "use_default_carrier_config": 1,
        "is_pickup_location_active": 0,
        "frontend_name": "Newcastle",
        "frontend_description": null
    },
    {
        "source_code": "noosa",
        "name": "Noosa",
        "enabled": 1,
        "description": null,
        "latitude": -26.402443,
        "longitude": 153.064888,
        "country_id": "AU",
        "region_id": 488,
        "region": "Queensland",
        "city": "Noosaville",
        "street": "1/11 Gibson Road",
        "postcode": "4566",
        "contact_name": "Noosa Store",
        "email": null,
        "phone": "0754702317",
        "fax": null,
        "use_default_carrier_config": 1,
        "is_pickup_location_active": 0,
        "frontend_name": "Noosa",
        "frontend_description": null
    },
    {
        "source_code": "nunawading",
        "name": "Nunawading",
        "enabled": 1,
        "description": null,
        "latitude": -37.819042,
        "longitude": 145.178097,
        "country_id": "AU",
        "region_id": 491,
        "region": "Victoria",
        "city": "Nunawading",
        "street": "368 Whitehorse Road",
        "postcode": "3131",
        "contact_name": "Nunawading Store",
        "email": null,
        "phone": "0398771659",
        "fax": null,
        "use_default_carrier_config": 1,
        "is_pickup_location_active": 0,
        "frontend_name": "Nunawading",
        "frontend_description": null
    },
    {
        "source_code": "osborne-park",
        "name": "Osborne Park",
        "enabled": 1,
        "description": null,
        "latitude": -31.907713,
        "longitude": 115.813167,
        "country_id": "AU",
        "region_id": 492,
        "region": "Western Australia",
        "city": "Osborne Park",
        "street": "6 Hutton Street",
        "postcode": "6017",
        "contact_name": "Osborne Park Store",
        "email": null,
        "phone": "0892100640",
        "fax": null,
        "use_default_carrier_config": 1,
        "is_pickup_location_active": 0,
        "frontend_name": "Osborne Park",
        "frontend_description": null
    },
    {
        "source_code": "penrith",
        "name": "Penrith",
        "enabled": 1,
        "description": null,
        "latitude": -33.767029,
        "longitude": 150.676485,
        "country_id": "AU",
        "region_id": 486,
        "region": "New South Wales",
        "city": "Jamisontown",
        "street": "1/233 Mulgoa Road",
        "postcode": "2750",
        "contact_name": "Penrith Store",
        "email": null,
        "phone": "0247492000",
        "fax": null,
        "use_default_carrier_config": 1,
        "is_pickup_location_active": 0,
        "frontend_name": "Penrith",
        "frontend_description": null
    },
    {
        "source_code": "preston",
        "name": "Preston",
        "enabled": 1,
        "description": null,
        "latitude": -37.746423,
        "longitude": 145.016488,
        "country_id": "AU",
        "region_id": 491,
        "region": "Victoria",
        "city": "Preston",
        "street": "204 Bell Street",
        "postcode": "3072",
        "contact_name": "Preston Store",
        "email": null,
        "phone": "0394951415",
        "fax": null,
        "use_default_carrier_config": 1,
        "is_pickup_location_active": 0,
        "frontend_name": "Preston",
        "frontend_description": null
    },
    {
        "source_code": "rosebud",
        "name": "Rosebud",
        "enabled": 1,
        "description": null,
        "latitude": -38.379869,
        "longitude": 144.888004,
        "country_id": "AU",
        "region_id": 491,
        "region": "Victoria",
        "city": "Rosebud",
        "street": "1/1 Colchester Road",
        "postcode": "3939",
        "contact_name": "Rosebud Store",
        "email": null,
        "phone": "0359811311",
        "fax": null,
        "use_default_carrier_config": 1,
        "is_pickup_location_active": 0,
        "frontend_name": "Rosebud",
        "frontend_description": null
    },
    {
        "source_code": "seaford",
        "name": "Seaford",
        "enabled": 1,
        "description": null,
        "latitude": -35.179089,
        "longitude": 138.493449,
        "country_id": "AU",
        "region_id": 489,
        "region": "South Australia",
        "city": "Seaford Meadows",
        "street": "9 Seaford Road",
        "postcode": "5169",
        "contact_name": "Seaford Store",
        "email": null,
        "phone": "0884881881",
        "fax": null,
        "use_default_carrier_config": 1,
        "is_pickup_location_active": 0,
        "frontend_name": "Seaford",
        "frontend_description": null
    },
    {
        "source_code": "shepparton",
        "name": "Shepparton",
        "enabled": 1,
        "description": null,
        "latitude": -36.414630,
        "longitude": 145.391118,
        "country_id": "AU",
        "region_id": 491,
        "region": "Victoria",
        "city": "Kialla",
        "street": "7955 Goulburn Valley Highway",
        "postcode": "3631",
        "contact_name": "Shepparton Store",
        "email": null,
        "phone": "0358232901",
        "fax": null,
        "use_default_carrier_config": 1,
        "is_pickup_location_active": 0,
        "frontend_name": "Shepparton",
        "frontend_description": null
    },
    {
        "source_code": "st-agnes",
        "name": "St Agnes",
        "enabled": 1,
        "description": null,
        "latitude": -34.831676,
        "longitude": 138.705822,
        "country_id": "AU",
        "region_id": 489,
        "region": "South Australia",
        "city": "St Agnes",
        "street": "9 Seaford Road",
        "postcode": "5169",
        "contact_name": "St Agnes Store",
        "email": null,
        "phone": "0884881881",
        "fax": null,
        "use_default_carrier_config": 1,
        "is_pickup_location_active": 0,
        "frontend_name": "St Agnes",
        "frontend_description": null
    },
    {
        "source_code": "summer-hill",
        "name": "Summer Hill",
        "enabled": 1,
        "description": null,
        "latitude": -33.886979,
        "longitude": 151.140098,
        "country_id": "AU",
        "region_id": 486,
        "region": "New South Wales",
        "city": "Summer Hill",
        "street": "72 Parramatta Road",
        "postcode": "2130",
        "contact_name": "Summer Hill Store",
        "email": null,
        "phone": "0297972581",
        "fax": null,
        "use_default_carrier_config": 1,
        "is_pickup_location_active": 0,
        "frontend_name": "Summer Hill",
        "frontend_description": null
    },
    {
        "source_code": "taren-point",
        "name": "Taren Point",
        "enabled": 1,
        "description": null,
        "latitude": -34.020937,
        "longitude": 151.120654,
        "country_id": "AU",
        "region_id": 486,
        "region": "New South Wales",
        "city": "Taren Point",
        "street": "Unit 6, 131-139 Taren Point Road",
        "postcode": "2229",
        "contact_name": "Taren Point Store",
        "email": null,
        "phone": "0295253466",
        "fax": null,
        "use_default_carrier_config": 1,
        "is_pickup_location_active": 0,
        "frontend_name": "Taren Point",
        "frontend_description": null
    },
    {
        "source_code": "townsville",
        "name": "Townsville",
        "enabled": 1,
        "description": null,
        "latitude": -19.269867,
        "longitude": 146.783497,
        "country_id": "AU",
        "region_id": 488,
        "region": "Queensland",
        "city": "Townsville",
        "street": "25 Martinez Avenue",
        "postcode": "4810",
        "contact_name": "Townsville Store",
        "email": null,
        "phone": "0747725807",
        "fax": null,
        "use_default_carrier_config": 1,
        "is_pickup_location_active": 0,
        "frontend_name": "Townsville",
        "frontend_description": null
    },
    {
        "source_code": "underwood",
        "name": "Underwood",
        "enabled": 1,
        "description": null,
        "latitude": -27.620855,
        "longitude": 153.114413,
        "country_id": "AU",
        "region_id": 488,
        "region": "Queensland",
        "city": "Underwood",
        "street": "10 Compton Road",
        "postcode": "4119",
        "contact_name": "Underwood Store",
        "email": null,
        "phone": "0732093255",
        "fax": null,
        "use_default_carrier_config": 1,
        "is_pickup_location_active": 0,
        "frontend_name": "Underwood",
        "frontend_description": null
    },
    {
        "source_code": "warragul",
        "name": "Warragul",
        "enabled": 1,
        "description": null,
        "latitude": -38.169087,
        "longitude": 145.930924,
        "country_id": "AU",
        "region_id": 491,
        "region": "Victoria",
        "city": "Warragul",
        "street": "4/1 Burke Street",
        "postcode": "3820",
        "contact_name": "Warragul Store",
        "email": null,
        "phone": "0356186033",
        "fax": null,
        "use_default_carrier_config": 1,
        "is_pickup_location_active": 0,
        "frontend_name": "Warragul",
        "frontend_description": null
    },
    {
        "source_code": "west-gosford",
        "name": "West Gosford",
        "enabled": 1,
        "description": null,
        "latitude": -33.415861,
        "longitude": 151.330505,
        "country_id": "AU",
        "region_id": 486,
        "region": "New South Wales",
        "city": "West Gosford",
        "street": "210 Manns Road",
        "postcode": "2250",
        "contact_name": "West Gosford Store",
        "email": null,
        "phone": "0243064423",
        "fax": null,
        "use_default_carrier_config": 1,
        "is_pickup_location_active": 0,
        "frontend_name": "West Gosford",
        "frontend_description": null
    },
    {
        "source_code": "wodonga",
        "name": "Wodonga",
        "enabled": 1,
        "description": null,
        "latitude": -36.113670,
        "longitude": 146.892961,
        "country_id": "AU",
        "region_id": 491,
        "region": "Victoria",
        "city": "Wodonga",
        "street": "22-26 High Street",
        "postcode": "3690",
        "contact_name": "Wodonga Store",
        "email": null,
        "phone": "0260242358",
        "fax": null,
        "use_default_carrier_config": 1,
        "is_pickup_location_active": 0,
        "frontend_name": "Wodonga",
        "frontend_description": null
    },
    {
        "source_code": "wollongong",
        "name": "Wollongong",
        "enabled": 1,
        "description": null,
        "latitude": -34.490215,
        "longitude": 150.888423,
        "country_id": "AU",
        "region_id": 486,
        "region": "New South Wales",
        "city": "Warrawong",
        "street": "1/73 King Street",
        "postcode": "2502",
        "contact_name": "Wollongong Store",
        "email": null,
        "phone": "0242740303",
        "fax": null,
        "use_default_carrier_config": 1,
        "is_pickup_location_active": 0,
        "frontend_name": "Wollongong",
        "frontend_description": null
    }
]
